station_id,station_name,latitude,longitude
DL031,RK_Puram,28.5672,77.1762
DL021,NSIT_Dwarka,28.6082,77.0307
DL002,Anand_Vihar,28.6508,77.3152
DL028,Punjabi_Bagh,28.673,77.131
DL019,Mandir_Marg,28.638,77.2
DL013,IHBAS_Dilshad_Garden,28.6781,77.3047
DL034,Sirifort,28.55,77.2213
DL007,CRRI_Mathura_Road,28.5505,77.259
DL033,Shadipur,28.6518,77.1451
DL012,IGI_Airport_T3,28.5562,77.1
DL008,DTU,28.7501,77.1119
DL017,Lodhi_Road,28.59,77.227
